[
    {
        "type": "Feature",
        "properties": {
            "country": "US",
            "elevation": 1340,
            "tz": "America/Chicago",
            "name": "Beyer Farm Airport",
            "iata": "",
            "icao": "06SN",
            "city": "Derby"
        },
        "geometry": {
            "coordinates": [
                -97.2530975342,
                37.5839004517
            ],
            "type": "Point"
        }
    },
    {
        "type": "Feature",
        "properties": {
            "country": "US",
            "elevation": 791,
            "tz": "America/New_York",
            "name": "Cleveland Hopkins International Airport",
            "iata": "CLE",
            "icao": "KCLE",
            "city": "Cleveland"
        },
        "geometry": {
            "coordinates": [
                -81.8498001099,
                41.4117012024
            ],
            "type": "Point"
        }
    },
    {
        "type": "Feature",
        "properties": {
            "country": "DE",
            "elevation": 167,
            "tz": "Europe/Berlin",
            "name": "Schonebeck-Zackmunde Airport",
            "iata": "",
            "icao": "EDOZ",
            "city": "Schonebeck"
        },
        "geometry": {
            "coordinates": [
                11.7908334732,
                51.9966659546
            ],
            "type": "Point"
        }
    },
    {
        "type": "Feature",
        "properties": {
            "country": "FJ",
            "elevation": 156,
            "tz": "Pacific/Fiji",
            "name": "Vatukoula Airport",
            "iata": "VAU",
            "icao": "NFNV",
            "city": "Vatukoula"
        },
        "geometry": {
            "coordinates": [
                177.8419952393,
                -17.5
            ],
            "type": "Point"
        }
    },
    {
        "type": "Feature",
        "properties": {
            "country": "US",
            "elevation": 1433,
            "tz": "America/Chicago",
            "name": "Altus Quartz Mountain Regional Airport",
            "iata": "AXS",
            "icao": "KAXS",
            "city": "Altus"
        },
        "geometry": {
            "coordinates": [
                -99.3403015137,
                34.6963996887
            ],
            "type": "Point"
        }
    },
    {
        "type": "Feature",
        "properties": {
            "country": "US",
            "elevation": 3955,
            "tz": "America/Phoenix",
            "name": "Nogales International Airport",
            "iata": "",
            "icao": "KOLS",
            "city": "Nogales"
        },
        "geometry": {
            "coordinates": [
                -110.8479995728,
                31.4176998138
            ],
            "type": "Point"
        }
    },
    {
        "type": "Feature",
        "properties": {
            "country": "DE",
            "elevation": 1903,
            "tz": "Europe/Berlin",
            "name": "Tannheim Airport",
            "iata": "",
            "icao": "EDMT",
            "city": "Tannheim"
        },
        "geometry": {
            "coordinates": [
                10.098610878,
                48.0099983215
            ],
            "type": "Point"
        }
    },
    {
        "type": "Feature",
        "properties": {
            "country": "BR",
            "elevation": 2402,
            "tz": "America/Sao_Paulo",
            "name": "Cirrus Sociedade Aerodesportiva Airport",
            "iata": "",
            "icao": "SIVJ",
            "city": "Jaboticatubas"
        },
        "geometry": {
            "coordinates": [
                -43.899723053,
                -19.4527778625
            ],
            "type": "Point"
        }
    },
    {
        "type": "Feature",
        "properties": {
            "country": "US",
            "elevation": 1890,
            "tz": "America/Los_Angeles",
            "name": "Lee's Airport",
            "iata": "",
            "icao": "WN89",
            "city": "Chattaroy"
        },
        "geometry": {
            "coordinates": [
                -117.34400177,
                47.8876991272
            ],
            "type": "Point"
        }
    },
    {
        "type": "Feature",
        "properties": {
            "country": "US",
            "elevation": 580,
            "tz": "America/Chicago",
            "name": "Henry County Airport",
            "iata": "",
            "icao": "KPHT",
            "city": "Paris"
        },
        "geometry": {
            "coordinates": [
                -88.3828964233,
                36.3381996155
            ],
            "type": "Point"
        }
    },
    {
        "type": "Feature",
        "properties": {
            "country": "RU",
            "elevation": 0,
            "tz": "Asia/Novosibirsk",
            "name": "Krasnoozyorsk Airport",
            "iata": "",
            "icao": "UNCN",
            "city": "Krasnoozyorskoye"
        },
        "geometry": {
            "coordinates": [
                79.3133926392,
                53.992785208
            ],
            "type": "Point"
        }
    },
    {
        "type": "Feature",
        "properties": {
            "country": "HN",
            "elevation": 7,
            "tz": "America/Tegucigalpa",
            "name": "Tela Airport",
            "iata": "TEA",
            "icao": "MHTE",
            "city": "Tela"
        },
        "geometry": {
            "coordinates": [
                -87.4757995605,
                15.7758998871
            ],
            "type": "Point"
        }
    },
    {
        "type": "Feature",
        "properties": {
            "country": "BR",
            "elevation": 1526,
            "tz": "America/Sao_Paulo",
            "name": "Fazenda Marimbondo Airport",
            "iata": "",
            "icao": "SSFM",
            "city": "Conselheiro Mairinck"
        },
        "geometry": {
            "coordinates": [
                -50.0980567932,
                -23.5369434357
            ],
            "type": "Point"
        }
    },
    {
        "type": "Feature",
        "properties": {
            "country": "US",
            "elevation": 715,
            "tz": "America/Chicago",
            "name": "Bakers Strip",
            "iata": "",
            "icao": "7LL4",
            "city": "Weldon"
        },
        "geometry": {
            "coordinates": [
                -88.7590026855,
                40.1172981262
            ],
            "type": "Point"
        }
    },
    {
        "type": "Feature",
        "properties": {
            "country": "US",
            "elevation": 690,
            "tz": "America/New_York",
            "name": "Glade STOLport",
            "iata": "",
            "icao": "OH37",
            "city": "Beaver"
        },
        "geometry": {
            "coordinates": [
                -82.7884979248,
                39.0116996765
            ],
            "type": "Point"
        }
    },
    {
        "type": "Feature",
        "properties": {
            "country": "US",
            "elevation": 312,
            "tz": "America/Chicago",
            "name": "San Rafael Ranch Airport",
            "iata": "",
            "icao": "38XS",
            "city": "Santa Elena"
        },
        "geometry": {
            "coordinates": [
                -98.4793014526,
                26.8152008057
            ],
            "type": "Point"
        }
    },
    {
        "type": "Feature",
        "properties": {
            "country": "US",
            "elevation": 565,
            "tz": "America/Chicago",
            "name": "Neversweat Too Airport",
            "iata": "",
            "icao": "89OK",
            "city": "Sallisaw"
        },
        "geometry": {
            "coordinates": [
                -94.8974990845,
                35.4430999756
            ],
            "type": "Point"
        }
    },
    {
        "type": "Feature",
        "properties": {
            "country": "ID",
            "elevation": 3510,
            "tz": "Asia/Makassar",
            "name": "Satar Tacik Airport",
            "iata": "RTG",
            "icao": "WATG",
            "city": "Satar Tacik-Flores Island"
        },
        "geometry": {
            "coordinates": [
                120.4769973755,
                -8.5970096588
            ],
            "type": "Point"
        }
    },
    {
        "type": "Feature",
        "properties": {
            "country": "PA",
            "elevation": 141,
            "tz": "America/Panama",
            "name": "Chame Airport",
            "iata": "",
            "icao": "MP24",
            "city": "La Paz"
        },
        "geometry": {
            "coordinates": [
                -79.8897018433,
                8.5884599686
            ],
            "type": "Point"
        }
    },
    {
        "type": "Feature",
        "properties": {
            "country": "US",
            "elevation": 1300,
            "tz": "America/Chicago",
            "name": "Ratliff Airport",
            "iata": "",
            "icao": "16TX",
            "city": "Stephenville"
        },
        "geometry": {
            "coordinates": [
                -98.1072998047,
                32.263999939
            ],
            "type": "Point"
        }
    },
    {
        "type": "Feature",
        "properties": {
            "country": "US",
            "elevation": 1560,
            "tz": "America/Chicago",
            "name": "Pinewood Air Park",
            "iata": "",
            "icao": "WS39",
            "city": "Goodnow"
        },
        "geometry": {
            "coordinates": [
                -89.662399292,
                45.6994018555
            ],
            "type": "Point"
        }
    },
    {
        "type": "Feature",
        "properties": {
            "country": "US",
            "elevation": 206,
            "tz": "America/Los_Angeles",
            "name": "Fly 'N' W Airport",
            "iata": "",
            "icao": "4OR5",
            "city": "Salem"
        },
        "geometry": {
            "coordinates": [
                -122.9410018921,
                44.9678993225
            ],
            "type": "Point"
        }
    },
    {
        "type": "Feature",
        "properties": {
            "country": "AU",
            "elevation": 110,
            "tz": "Australia/Adelaide",
            "name": "Aldinga Airport",
            "iata": "",
            "icao": "YADG",
            "city": "Aldinga"
        },
        "geometry": {
            "coordinates": [
                138.490005493,
                -35.2900009155
            ],
            "type": "Point"
        }
    },
    {
        "type": "Feature",
        "properties": {
            "country": "US",
            "elevation": 23,
            "tz": "America/New_York",
            "name": "Antiquers Aerodrome",
            "iata": "",
            "icao": "FD08",
            "city": "Delray Beach"
        },
        "geometry": {
            "coordinates": [
                -80.1498031616,
                26.4654006958
            ],
            "type": "Point"
        }
    },
    {
        "type": "Feature",
        "properties": {
            "country": "US",
            "elevation": 770,
            "tz": "America/Chicago",
            "name": "Winfield Airport",
            "iata": "",
            "icao": "WI58",
            "city": "Bristol"
        },
        "geometry": {
            "coordinates": [
                -88.0279006958,
                42.5222015381
            ],
            "type": "Point"
        }
    },
    {
        "type": "Feature",
        "properties": {
            "country": "US",
            "elevation": 520,
            "tz": "America/New_York",
            "name": "Frymoyer Airport",
            "iata": "",
            "icao": "4PA3",
            "city": "Liverpool"
        },
        "geometry": {
            "coordinates": [
                -77.0102996826,
                40.6305999756
            ],
            "type": "Point"
        }
    },
    {
        "type": "Feature",
        "properties": {
            "country": "US",
            "elevation": 7135,
            "tz": "America/Los_Angeles",
            "name": "Mammoth Yosemite Airport",
            "iata": "MMH",
            "icao": "KMMH",
            "city": "Mammoth Lakes"
        },
        "geometry": {
            "coordinates": [
                -118.8379974,
                37.62409973
            ],
            "type": "Point"
        }
    },
    {
        "type": "Feature",
        "properties": {
            "country": "US",
            "elevation": 3920,
            "tz": "America/Denver",
            "name": "Mitchell's Strip",
            "iata": "",
            "icao": "SD90",
            "city": "Spearfish"
        },
        "geometry": {
            "coordinates": [
                -103.7870025635,
                44.4672012329
            ],
            "type": "Point"
        }
    },
    {
        "type": "Feature",
        "properties": {
            "country": "US",
            "elevation": 1697,
            "tz": "America/New_York",
            "name": "Western Carolina Regional Airport",
            "iata": "",
            "icao": "KRHP",
            "city": "Andrews"
        },
        "geometry": {
            "coordinates": [
                -83.86299896,
                35.19520187
            ],
            "type": "Point"
        }
    },
    {
        "type": "Feature",
        "properties": {
            "country": "US",
            "elevation": 832,
            "tz": "America/Chicago",
            "name": "Casslindan Airport",
            "iata": "",
            "icao": "2ND3",
            "city": "Grand Forks"
        },
        "geometry": {
            "coordinates": [
                -97.1223983765,
                48.0008010864
            ],
            "type": "Point"
        }
    },
    {
        "type": "Feature",
        "properties": {
            "country": "US",
            "elevation": 475,
            "tz": "America/Chicago",
            "name": "Oliver Landing Airport",
            "iata": "",
            "icao": "42TN",
            "city": "Paris"
        },
        "geometry": {
            "coordinates": [
                -88.265556,
                36.411944
            ],
            "type": "Point"
        }
    },
    {
        "type": "Feature",
        "properties": {
            "country": "US",
            "elevation": 1125,
            "tz": "America/New_York",
            "name": "Cross Airport",
            "iata": "",
            "icao": "91OI",
            "city": "Canton"
        },
        "geometry": {
            "coordinates": [
                -81.4587020874,
                40.7773017883
            ],
            "type": "Point"
        }
    },
    {
        "type": "Feature",
        "properties": {
            "country": "BR",
            "elevation": 2136,
            "tz": "America/Sao_Paulo",
            "name": "Sao Joaquim da Barra Airport",
            "iata": "0",
            "icao": "SDJO",
            "city": "Sao Joaquim Da Barra"
        },
        "geometry": {
            "coordinates": [
                -47.8422012329,
                -20.5932998657
            ],
            "type": "Point"
        }
    },
    {
        "type": "Feature",
        "properties": {
            "country": "AM",
            "elevation": 4416,
            "tz": "Asia/Yerevan",
            "name": "Yerevan Yegvard Airport",
            "iata": "",
            "icao": "UD21",
            "city": "Yerevan"
        },
        "geometry": {
            "coordinates": [
                44.5646018982,
                40.2941017151
            ],
            "type": "Point"
        }
    },
    {
        "type": "Feature",
        "properties": {
            "country": "US",
            "elevation": 1060,
            "tz": "America/Chicago",
            "name": "Kraig Farms Airport",
            "iata": "",
            "icao": "NA05",
            "city": "Sheldon"
        },
        "geometry": {
            "coordinates": [
                -97.4356002808,
                46.6122016907
            ],
            "type": "Point"
        }
    },
    {
        "type": "Feature",
        "properties": {
            "country": "CA",
            "elevation": 2280,
            "tz": "America/Vancouver",
            "name": "Tsay Keh Airport",
            "iata": "",
            "icao": "CBN9",
            "city": "Tsay Keh"
        },
        "geometry": {
            "coordinates": [
                -124.9649963379,
                56.9061012268
            ],
            "type": "Point"
        }
    },
    {
        "type": "Feature",
        "properties": {
            "country": "BF",
            "elevation": 984,
            "tz": "Africa/Ouagadougou",
            "name": "Banfora Airport",
            "iata": "BNR",
            "icao": "DFOB",
            "city": "Banfora"
        },
        "geometry": {
            "coordinates": [
                -4.7170000076,
                10.6829996109
            ],
            "type": "Point"
        }
    },
    {
        "type": "Feature",
        "properties": {
            "country": "US",
            "elevation": 2648,
            "tz": "America/Los_Angeles",
            "name": "Siskiyou County Airport",
            "iata": "",
            "icao": "KSIY",
            "city": "Montague"
        },
        "geometry": {
            "coordinates": [
                -122.4680023193,
                41.7813987732
            ],
            "type": "Point"
        }
    },
    {
        "type": "Feature",
        "properties": {
            "country": "IS",
            "elevation": 20,
            "tz": "Atlantic/Reykjavik",
            "name": "Arnger\u00f0areyri Airport",
            "iata": "",
            "icao": "BIAE",
            "city": "Arnger\u00f0areyri"
        },
        "geometry": {
            "coordinates": [
                -22.3633003235,
                65.9047012329
            ],
            "type": "Point"
        }
    },
    {
        "type": "Feature",
        "properties": {
            "country": "US",
            "elevation": 100,
            "tz": "America/New_York",
            "name": "B J Farms Airport",
            "iata": "",
            "icao": "NJ06",
            "city": "Shiloh"
        },
        "geometry": {
            "coordinates": [
                -75.2732009888,
                39.4575996399
            ],
            "type": "Point"
        }
    },
    {
        "type": "Feature",
        "properties": {
            "country": "CA",
            "elevation": 1562,
            "tz": "America/Regina",
            "name": "Cigar Lake Airport",
            "iata": "",
            "icao": "CJW7",
            "city": "Cigar Lake"
        },
        "geometry": {
            "coordinates": [
                -104.4840011597,
                58.0531005859
            ],
            "type": "Point"
        }
    },
    {
        "type": "Feature",
        "properties": {
            "country": "US",
            "elevation": 880,
            "tz": "America/Indiana/Indianapolis",
            "name": "Gibbons Field",
            "iata": "",
            "icao": "09II",
            "city": "Valeene"
        },
        "geometry": {
            "coordinates": [
                -86.4449996948,
                38.4472999573
            ],
            "type": "Point"
        }
    },
    {
        "type": "Feature",
        "properties": {
            "country": "US",
            "elevation": 700,
            "tz": "America/Chicago",
            "name": "Port Paradise Farms Airport",
            "iata": "",
            "icao": "8IA2",
            "city": "Winfield"
        },
        "geometry": {
            "coordinates": [
                -91.3618011475,
                41.1739006042
            ],
            "type": "Point"
        }
    },
    {
        "type": "Feature",
        "properties": {
            "country": "US",
            "elevation": 236,
            "tz": "America/New_York",
            "name": "Columbia Metropolitan Airport",
            "iata": "CAE",
            "icao": "KCAE",
            "city": "Columbia"
        },
        "geometry": {
            "coordinates": [
                -81.1194992065,
                33.9388008118
            ],
            "type": "Point"
        }
    },
    {
        "type": "Feature",
        "properties": {
            "country": "US",
            "elevation": 800,
            "tz": "America/New_York",
            "name": "De De Airport",
            "iata": "",
            "icao": "1GA6",
            "city": "Barnesville"
        },
        "geometry": {
            "coordinates": [
                -84.1107025146,
                33.0089988708
            ],
            "type": "Point"
        }
    },
    {
        "type": "Feature",
        "properties": {
            "country": "IN",
            "elevation": 3045,
            "tz": "Asia/Kolkata",
            "name": "Yelahanka Air Force Station",
            "iata": "",
            "icao": "VOYK",
            "city": "Yelahanka"
        },
        "geometry": {
            "coordinates": [
                77.6060028076,
                13.1354999542
            ],
            "type": "Point"
        }
    },
    {
        "type": "Feature",
        "properties": {
            "country": "US",
            "elevation": 640,
            "tz": "America/New_York",
            "name": "Checkpoint Charlie Airport",
            "iata": "",
            "icao": "OI27",
            "city": "Lowell"
        },
        "geometry": {
            "coordinates": [
                -81.5696029663,
                39.5567016602
            ],
            "type": "Point"
        }
    },
    {
        "type": "Feature",
        "properties": {
            "country": "BR",
            "elevation": 1932,
            "tz": "America/Sao_Paulo",
            "name": "Pousada das Aguias Airport",
            "iata": "",
            "icao": "SSXO",
            "city": "Presidente Castelo Branco"
        },
        "geometry": {
            "coordinates": [
                -52.1291656494,
                -23.2888889313
            ],
            "type": "Point"
        }
    },
    {
        "type": "Feature",
        "properties": {
            "country": "FJ",
            "elevation": 6,
            "tz": "Pacific/Fiji",
            "name": "Vunisea Airport",
            "iata": "KDV",
            "icao": "NFKD",
            "city": "Vunisea"
        },
        "geometry": {
            "coordinates": [
                178.156997681,
                -19.0580997467
            ],
            "type": "Point"
        }
    },
    {
        "type": "Feature",
        "properties": {
            "country": "BO",
            "elevation": 1249,
            "tz": "America/La_Paz",
            "name": "Bermejo Airport",
            "iata": "BJO",
            "icao": "SLBJ",
            "city": "Bermejo"
        },
        "geometry": {
            "coordinates": [
                -64.3128967285,
                -22.7733001709
            ],
            "type": "Point"
        }
    },
    {
        "type": "Feature",
        "properties": {
            "country": "BR",
            "elevation": 3548,
            "tz": "America/Sao_Paulo",
            "name": "Fazenda Agua Santa Airport",
            "iata": "",
            "icao": "SNHR",
            "city": "Perdizes"
        },
        "geometry": {
            "coordinates": [
                -47.3594436646,
                -19.3630561829
            ],
            "type": "Point"
        }
    },
    {
        "type": "Feature",
        "properties": {
            "country": "US",
            "elevation": 540,
            "tz": "America/Chicago",
            "name": "Wings Field",
            "iata": "",
            "icao": "2TN2",
            "city": "Hickory Valley"
        },
        "geometry": {
            "coordinates": [
                -89.1889038086,
                35.2235984802
            ],
            "type": "Point"
        }
    },
    {
        "type": "Feature",
        "properties": {
            "country": "SA",
            "elevation": 4155,
            "tz": "Asia/Riyadh",
            "name": "Arfa Airport",
            "iata": "",
            "icao": "OE43",
            "city": ""
        },
        "geometry": {
            "coordinates": [
                41.198299408,
                21.323600769
            ],
            "type": "Point"
        }
    },
    {
        "type": "Feature",
        "properties": {
            "country": "KR",
            "elevation": 655,
            "tz": "Asia/Seoul",
            "name": "G 404 Airport",
            "iata": "",
            "icao": "RK13",
            "city": ""
        },
        "geometry": {
            "coordinates": [
                127.9869995117,
                38.0875015259
            ],
            "type": "Point"
        }
    },
    {
        "type": "Feature",
        "properties": {
            "country": "US",
            "elevation": 30,
            "tz": "America/Chicago",
            "name": "Salaika Aviation Airport",
            "iata": "",
            "icao": "07TA",
            "city": "Danbury"
        },
        "geometry": {
            "coordinates": [
                -95.3447036743,
                29.2404994965
            ],
            "type": "Point"
        }
    },
    {
        "type": "Feature",
        "properties": {
            "country": "AU",
            "elevation": 0,
            "tz": "Australia/Darwin",
            "name": "Robinson River Airport",
            "iata": "",
            "icao": "YRBR",
            "city": ""
        },
        "geometry": {
            "coordinates": [
                136.9450073242,
                -16.7182998657
            ],
            "type": "Point"
        }
    },
    {
        "type": "Feature",
        "properties": {
            "country": "NO",
            "elevation": 1621,
            "tz": "Europe/Oslo",
            "name": "AEra Airfield",
            "iata": "",
            "icao": "ENAE",
            "city": "Amot"
        },
        "geometry": {
            "coordinates": [
                11.6688995361,
                61.2574005127
            ],
            "type": "Point"
        }
    },
    {
        "type": "Feature",
        "properties": {
            "country": "US",
            "elevation": 1230,
            "tz": "America/Chicago",
            "name": "Guthrie County Regional Airport",
            "iata": "",
            "icao": "KGCT",
            "city": "Guthrie Center"
        },
        "geometry": {
            "coordinates": [
                -94.4352035522,
                41.6878013611
            ],
            "type": "Point"
        }
    },
    {
        "type": "Feature",
        "properties": {
            "country": "US",
            "elevation": 56,
            "tz": "America/New_York",
            "name": "Summerville Airport",
            "iata": "",
            "icao": "KDYB",
            "city": "Summerville"
        },
        "geometry": {
            "coordinates": [
                -80.279296875,
                33.0634002686
            ],
            "type": "Point"
        }
    },
    {
        "type": "Feature",
        "properties": {
            "country": "US",
            "elevation": 969,
            "tz": "America/Nome",
            "name": "Red Dog Airport",
            "iata": "RDB",
            "icao": "PADG",
            "city": "Red Dog"
        },
        "geometry": {
            "coordinates": [
                -162.899002075,
                68.0320968628
            ],
            "type": "Point"
        }
    },
    {
        "type": "Feature",
        "properties": {
            "country": "CN",
            "elevation": 5112,
            "tz": "Asia/Chongqing",
            "name": "Xichang Qingshan Airport",
            "iata": "XIC",
            "icao": "ZUXC",
            "city": "Xichang"
        },
        "geometry": {
            "coordinates": [
                102.1839981079,
                27.9890995026
            ],
            "type": "Point"
        }
    },
    {
        "type": "Feature",
        "properties": {
            "country": "US",
            "elevation": 955,
            "tz": "America/Chicago",
            "name": "Buchholz Farm Airport",
            "iata": "",
            "icao": "9WI3",
            "city": "Morrison"
        },
        "geometry": {
            "coordinates": [
                -87.9868011475,
                44.2854995728
            ],
            "type": "Point"
        }
    },
    {
        "type": "Feature",
        "properties": {
            "country": "BR",
            "elevation": 26,
            "tz": "America/Sao_Paulo",
            "name": "Saquarema Airport",
            "iata": "",
            "icao": "SDSK",
            "city": "Saquarema"
        },
        "geometry": {
            "coordinates": [
                -42.506942749,
                -22.9297218323
            ],
            "type": "Point"
        }
    },
    {
        "type": "Feature",
        "properties": {
            "country": "US",
            "elevation": 28,
            "tz": "America/New_York",
            "name": "Bob Paul Airport",
            "iata": "",
            "icao": "FL88",
            "city": "La Belle"
        },
        "geometry": {
            "coordinates": [
                -81.449798584,
                26.6837005615
            ],
            "type": "Point"
        }
    },
    {
        "type": "Feature",
        "properties": {
            "country": "AU",
            "elevation": 0,
            "tz": "Australia/Sydney",
            "name": "Menindee Airport",
            "iata": "",
            "icao": "YMED",
            "city": ""
        },
        "geometry": {
            "coordinates": [
                142.4049987793,
                -32.3666992188
            ],
            "type": "Point"
        }
    },
    {
        "type": "Feature",
        "properties": {
            "country": "US",
            "elevation": 1992,
            "tz": "America/Chicago",
            "name": "Moore Field",
            "iata": "",
            "icao": "SN48",
            "city": "Byers"
        },
        "geometry": {
            "coordinates": [
                -98.8498001099,
                37.7882995605
            ],
            "type": "Point"
        }
    },
    {
        "type": "Feature",
        "properties": {
            "country": "US",
            "elevation": 60,
            "tz": "America/New_York",
            "name": "Camp Davis Mcolf Airport",
            "iata": "",
            "icao": "14NC",
            "city": "Holly Ridge"
        },
        "geometry": {
            "coordinates": [
                -77.5500030518,
                34.5167007446
            ],
            "type": "Point"
        }
    },
    {
        "type": "Feature",
        "properties": {
            "country": "BR",
            "elevation": 804,
            "tz": "America/Araguaina",
            "name": "Fazenda Acara Airport",
            "iata": "",
            "icao": "SJUS",
            "city": "Britania"
        },
        "geometry": {
            "coordinates": [
                -51.1588897705,
                -15.0744438171
            ],
            "type": "Point"
        }
    },
    {
        "type": "Feature",
        "properties": {
            "country": "US",
            "elevation": 2940,
            "tz": "America/Chicago",
            "name": "Stevenson Private Airport",
            "iata": "",
            "icao": "6KS2",
            "city": "Selden"
        },
        "geometry": {
            "coordinates": [
                -100.6299972534,
                39.4416999817
            ],
            "type": "Point"
        }
    },
    {
        "type": "Feature",
        "properties": {
            "country": "CA",
            "elevation": 1950,
            "tz": "America/Regina",
            "name": "Craik Airport",
            "iata": "",
            "icao": "CJC2",
            "city": "Craik"
        },
        "geometry": {
            "coordinates": [
                -105.8379974365,
                51.056098938
            ],
            "type": "Point"
        }
    },
    {
        "type": "Feature",
        "properties": {
            "country": "US",
            "elevation": 680,
            "tz": "America/New_York",
            "name": "Schulteis Airport",
            "iata": "",
            "icao": "3PN0",
            "city": "Biglerville"
        },
        "geometry": {
            "coordinates": [
                -77.2591018677,
                39.9603996277
            ],
            "type": "Point"
        }
    },
    {
        "type": "Feature",
        "properties": {
            "country": "RU",
            "elevation": 1781,
            "tz": "Asia/Yakutsk",
            "name": "Ekimchan Airport",
            "iata": "",
            "icao": "UHBP",
            "city": "Ekimchan"
        },
        "geometry": {
            "coordinates": [
                132.9510040283,
                53.0760993958
            ],
            "type": "Point"
        }
    },
    {
        "type": "Feature",
        "properties": {
            "country": "US",
            "elevation": 19,
            "tz": "America/Los_Angeles",
            "name": "Flying B Ranch Airport",
            "iata": "",
            "icao": "CN38",
            "city": "Franklin"
        },
        "geometry": {
            "coordinates": [
                -121.43699646,
                38.3413009644
            ],
            "type": "Point"
        }
    },
    {
        "type": "Feature",
        "properties": {
            "country": "US",
            "elevation": 150,
            "tz": "America/Anchorage",
            "name": "Owen Field",
            "iata": "",
            "icao": "20AK",
            "city": "Big Lake"
        },
        "geometry": {
            "coordinates": [
                -149.896044,
                61.503789
            ],
            "type": "Point"
        }
    },
    {
        "type": "Feature",
        "properties": {
            "country": "AU",
            "elevation": 165,
            "tz": "Australia/Brisbane",
            "name": "Thylungra Airport",
            "iata": "TYG",
            "icao": "YTHY",
            "city": ""
        },
        "geometry": {
            "coordinates": [
                143.4669952393,
                -26.0832996368
            ],
            "type": "Point"
        }
    },
    {
        "type": "Feature",
        "properties": {
            "country": "IS",
            "elevation": 32,
            "tz": "Atlantic/Reykjavik",
            "name": "Olafsfjor\u00f0ur Airport",
            "iata": "OFJ",
            "icao": "BIOF",
            "city": "Olafsfjor\u00f0ur"
        },
        "geometry": {
            "coordinates": [
                -18.6667003632,
                66.0832977295
            ],
            "type": "Point"
        }
    },
    {
        "type": "Feature",
        "properties": {
            "country": "US",
            "elevation": 180,
            "tz": "America/New_York",
            "name": "Wellborn STOLport",
            "iata": "",
            "icao": "7FL2",
            "city": "Wellborn"
        },
        "geometry": {
            "coordinates": [
                -82.778503418,
                30.2455005646
            ],
            "type": "Point"
        }
    },
    {
        "type": "Feature",
        "properties": {
            "country": "US",
            "elevation": 197,
            "tz": "America/New_York",
            "name": "Metter Municipal Airport",
            "iata": "",
            "icao": "KMHP",
            "city": "Metter"
        },
        "geometry": {
            "coordinates": [
                -82.0792007446,
                32.3739013672
            ],
            "type": "Point"
        }
    },
    {
        "type": "Feature",
        "properties": {
            "country": "TL",
            "elevation": 96,
            "tz": "Asia/Dili",
            "name": "Suai Airport",
            "iata": "UAI",
            "icao": "WPDB",
            "city": "Suai"
        },
        "geometry": {
            "coordinates": [
                125.2870025635,
                -9.3033103943
            ],
            "type": "Point"
        }
    },
    {
        "type": "Feature",
        "properties": {
            "country": "US",
            "elevation": 678,
            "tz": "America/Detroit",
            "name": "Lada Airport",
            "iata": "",
            "icao": "7MI5",
            "city": "Petersburg"
        },
        "geometry": {
            "coordinates": [
                -83.6765975952,
                41.8875007629
            ],
            "type": "Point"
        }
    },
    {
        "type": "Feature",
        "properties": {
            "country": "CL",
            "elevation": 820,
            "tz": "America/Santiago",
            "name": "Estancia Los Loros Airport",
            "iata": "",
            "icao": "SCOA",
            "city": "Ovalle"
        },
        "geometry": {
            "coordinates": [
                -71.6183319092,
                -30.7894439697
            ],
            "type": "Point"
        }
    },
    {
        "type": "Feature",
        "properties": {
            "country": "RO",
            "elevation": 348,
            "tz": "Europe/Bucharest",
            "name": "Timi?oara Traian Vuia Airport",
            "iata": "TSR",
            "icao": "LRTR",
            "city": "Timi?oara"
        },
        "geometry": {
            "coordinates": [
                21.3379001617,
                45.8098983765
            ],
            "type": "Point"
        }
    },
    {
        "type": "Feature",
        "properties": {
            "country": "US",
            "elevation": 4130,
            "tz": "America/Los_Angeles",
            "name": "Lawen Strip",
            "iata": "",
            "icao": "OG18",
            "city": "Lawen"
        },
        "geometry": {
            "coordinates": [
                -118.8310012817,
                43.479598999
            ],
            "type": "Point"
        }
    },
    {
        "type": "Feature",
        "properties": {
            "country": "BR",
            "elevation": 2037,
            "tz": "America/Campo_Grande",
            "name": "Fazenda Agua Verde Airport",
            "iata": "",
            "icao": "SWAV",
            "city": "Diamantino"
        },
        "geometry": {
            "coordinates": [
                -57.4547233582,
                -14.0727777481
            ],
            "type": "Point"
        }
    },
    {
        "type": "Feature",
        "properties": {
            "country": "RU",
            "elevation": 656,
            "tz": "Asia/Magadan",
            "name": "Moma Airport",
            "iata": "",
            "icao": "UEMA",
            "city": "Honuu"
        },
        "geometry": {
            "coordinates": [
                143.2615509033,
                66.4508590698
            ],
            "type": "Point"
        }
    },
    {
        "type": "Feature",
        "properties": {
            "country": "CL",
            "elevation": 13,
            "tz": "America/Santiago",
            "name": "Las Marias Airport",
            "iata": "",
            "icao": "SCVL",
            "city": "Valdivia"
        },
        "geometry": {
            "coordinates": [
                -73.2416992188,
                -39.7969017029
            ],
            "type": "Point"
        }
    },
    {
        "type": "Feature",
        "properties": {
            "country": "PG",
            "elevation": 20,
            "tz": "Pacific/Port_Moresby",
            "name": "Madang Airport",
            "iata": "MAG",
            "icao": "AYMD",
            "city": "Madang"
        },
        "geometry": {
            "coordinates": [
                145.789001465,
                -5.2070798874
            ],
            "type": "Point"
        }
    },
    {
        "type": "Feature",
        "properties": {
            "country": "US",
            "elevation": 189,
            "tz": "America/Anchorage",
            "name": "Kucera Residence Airport",
            "iata": "",
            "icao": "63AK",
            "city": "Big Lake"
        },
        "geometry": {
            "coordinates": [
                -149.93800354,
                61.5843009949
            ],
            "type": "Point"
        }
    },
    {
        "type": "Feature",
        "properties": {
            "country": "US",
            "elevation": 20,
            "tz": "America/Anchorage",
            "name": "Herendeen Bay Airport",
            "iata": "HED",
            "icao": "AK33",
            "city": "Herendeen Bay"
        },
        "geometry": {
            "coordinates": [
                -160.899002075,
                55.801399231
            ],
            "type": "Point"
        }
    },
    {
        "type": "Feature",
        "properties": {
            "country": "CA",
            "elevation": 1394,
            "tz": "America/Regina",
            "name": "Ile-a-la-Crosse Airport",
            "iata": "",
            "icao": "CJF3",
            "city": "Ile-a-la-Crosse"
        },
        "geometry": {
            "coordinates": [
                -107.9300003052,
                55.4897003174
            ],
            "type": "Point"
        }
    },
    {
        "type": "Feature",
        "properties": {
            "country": "US",
            "elevation": 900,
            "tz": "America/Chicago",
            "name": "Angle Bar M Airport",
            "iata": "",
            "icao": "MU07",
            "city": "Adrian"
        },
        "geometry": {
            "coordinates": [
                -94.3102035522,
                38.3946990967
            ],
            "type": "Point"
        }
    },
    {
        "type": "Feature",
        "properties": {
            "country": "US",
            "elevation": 870,
            "tz": "America/Chicago",
            "name": "Edward Getzelman Airport",
            "iata": "",
            "icao": "7IL7",
            "city": "Hampshire"
        },
        "geometry": {
            "coordinates": [
                -88.5334014893,
                42.126701355
            ],
            "type": "Point"
        }
    },
    {
        "type": "Feature",
        "properties": {
            "country": "US",
            "elevation": 480,
            "tz": "America/Chicago",
            "name": "Koester Field",
            "iata": "",
            "icao": "5II5",
            "city": "St. Wendel"
        },
        "geometry": {
            "coordinates": [
                -87.7020978928,
                38.1180144538
            ],
            "type": "Point"
        }
    },
    {
        "type": "Feature",
        "properties": {
            "country": "US",
            "elevation": 260,
            "tz": "America/New_York",
            "name": "Perrotti Skyranch Airfield",
            "iata": "",
            "icao": "09ME",
            "city": "Berwick"
        },
        "geometry": {
            "coordinates": [
                -70.8546981812,
                43.340801239
            ],
            "type": "Point"
        }
    },
    {
        "type": "Feature",
        "properties": {
            "country": "CA",
            "elevation": 750,
            "tz": "America/Regina",
            "name": "Camsell Portage Airport",
            "iata": "",
            "icao": "CJP6",
            "city": "Camsell Portage"
        },
        "geometry": {
            "coordinates": [
                -109.266998291,
                59.6100006104
            ],
            "type": "Point"
        }
    },
    {
        "type": "Feature",
        "properties": {
            "country": "BR",
            "elevation": 2133,
            "tz": "America/Sao_Paulo",
            "name": "Veranopolis Airport",
            "iata": "0",
            "icao": "SSVN",
            "city": "Veranopolis"
        },
        "geometry": {
            "coordinates": [
                -51.5682983398,
                -28.9349994659
            ],
            "type": "Point"
        }
    },
    {
        "type": "Feature",
        "properties": {
            "country": "CA",
            "elevation": 1408,
            "tz": "America/Atikokan",
            "name": "Atikokan Municipal Airport",
            "iata": "YIB",
            "icao": "CYIB",
            "city": "Atikokan"
        },
        "geometry": {
            "coordinates": [
                -91.6386032104,
                48.7738990784
            ],
            "type": "Point"
        }
    },
    {
        "type": "Feature",
        "properties": {
            "country": "US",
            "elevation": 396,
            "tz": "America/Los_Angeles",
            "name": "Boardman Airport",
            "iata": "",
            "icao": "KM50",
            "city": "Boardman"
        },
        "geometry": {
            "coordinates": [
                -119.8209991455,
                45.8148002625
            ],
            "type": "Point"
        }
    },
    {
        "type": "Feature",
        "properties": {
            "country": "HN",
            "elevation": 2500,
            "tz": "America/Tegucigalpa",
            "name": "Las Minitas Airport",
            "iata": "",
            "icao": "MHMI",
            "city": "Vallecillo"
        },
        "geometry": {
            "coordinates": [
                -87.2466659546,
                15.0511112213
            ],
            "type": "Point"
        }
    },
    {
        "type": "Feature",
        "properties": {
            "country": "RU",
            "elevation": 365,
            "tz": "Asia/Novosibirsk",
            "name": "Tolmachevo Airport",
            "iata": "OVB",
            "icao": "UNNT",
            "city": "Novosibirsk"
        },
        "geometry": {
            "coordinates": [
                82.6507034302,
                55.0125999451
            ],
            "type": "Point"
        }
    },
    {
        "type": "Feature",
        "properties": {
            "country": "IT",
            "elevation": 377,
            "tz": "Europe/Rome",
            "name": "Casale Monferrato Airport",
            "iata": "",
            "icao": "LILM",
            "city": "Casale Monferrato"
        },
        "geometry": {
            "coordinates": [
                8.456029892,
                45.1111984253
            ],
            "type": "Point"
        }
    },
    {
        "type": "Feature",
        "properties": {
            "country": "BR",
            "elevation": 508,
            "tz": "America/Campo_Grande",
            "name": "Fazenda Santa Maria Airport",
            "iata": "",
            "icao": "SSDV",
            "city": "Coxim"
        },
        "geometry": {
            "coordinates": [
                -55.4652786255,
                -18.2161102295
            ],
            "type": "Point"
        }
    },
    {
        "type": "Feature",
        "properties": {
            "country": "BR",
            "elevation": 597,
            "tz": "America/Santarem",
            "name": "Santana do Araguaia Airport",
            "iata": "CMP",
            "icao": "SNKE",
            "city": "Santana Do Araguaia"
        },
        "geometry": {
            "coordinates": [
                -50.3284988403,
                -9.3199701309
            ],
            "type": "Point"
        }
    },
    {
        "type": "Feature",
        "properties": {
            "country": "TZ",
            "elevation": 2200,
            "tz": "Africa/Dar_es_Salaam",
            "name": "Tunduru Airport",
            "iata": "",
            "icao": "HTTU",
            "city": "Tunduru"
        },
        "geometry": {
            "coordinates": [
                37.3670005798,
                -11.1000003815
            ],
            "type": "Point"
        }
    },
    {
        "type": "Feature",
        "properties": {
            "country": "BR",
            "elevation": 1264,
            "tz": "America/Cuiaba",
            "name": "Fazenda Flor da Mata Airport",
            "iata": "",
            "icao": "SIQN",
            "city": "Sao Jose Do Xingu"
        },
        "geometry": {
            "coordinates": [
                -52.8019447327,
                -10.7166671753
            ],
            "type": "Point"
        }
    },
    {
        "type": "Feature",
        "properties": {
            "country": "BR",
            "elevation": 1142,
            "tz": "America/Sao_Paulo",
            "name": "Fazenda Santa Maria da Mata Airport",
            "iata": "",
            "icao": "SDXO",
            "city": "Sud Menucci"
        },
        "geometry": {
            "coordinates": [
                -50.9716682434,
                -20.7275009155
            ],
            "type": "Point"
        }
    },
    {
        "type": "Feature",
        "properties": {
            "country": "AU",
            "elevation": 0,
            "tz": "Australia/Darwin",
            "name": "Batchelor Airport",
            "iata": "",
            "icao": "YBCR",
            "city": ""
        },
        "geometry": {
            "coordinates": [
                131.0330047607,
                -13.0666999817
            ],
            "type": "Point"
        }
    },
    {
        "type": "Feature",
        "properties": {
            "country": "IN",
            "elevation": 78,
            "tz": "Asia/Kolkata",
            "name": "Balurghat Airport",
            "iata": "RGH",
            "icao": "VEBG",
            "city": "Balurghat"
        },
        "geometry": {
            "coordinates": [
                88.7956008911,
                25.2616996765
            ],
            "type": "Point"
        }
    },
    {
        "type": "Feature",
        "properties": {
            "country": "US",
            "elevation": 4742,
            "tz": "America/Boise",
            "name": "Cascade Airport",
            "iata": "ICS",
            "icao": "KU70",
            "city": "Cascade"
        },
        "geometry": {
            "coordinates": [
                -116.01599884,
                44.4938011169
            ],
            "type": "Point"
        }
    },
    {
        "type": "Feature",
        "properties": {
            "country": "US",
            "elevation": 3102,
            "tz": "America/Chicago",
            "name": "Van Boening Airport",
            "iata": "",
            "icao": "6NE0",
            "city": "Wallace"
        },
        "geometry": {
            "coordinates": [
                -101.1660003662,
                40.7868995667
            ],
            "type": "Point"
        }
    },
    {
        "type": "Feature",
        "properties": {
            "country": "CA",
            "elevation": 2975,
            "tz": "America/Edmonton",
            "name": "Three Hills Airport",
            "iata": "",
            "icao": "CEN3",
            "city": "Three Hills"
        },
        "geometry": {
            "coordinates": [
                -113.2089996338,
                51.6967010498
            ],
            "type": "Point"
        }
    },
    {
        "type": "Feature",
        "properties": {
            "country": "SD",
            "elevation": 1640,
            "tz": "Africa/Khartoum",
            "name": "Galegu Airport",
            "iata": "DNX",
            "icao": "HSGG",
            "city": "Dinder"
        },
        "geometry": {
            "coordinates": [
                35.0670013428,
                12.5329999924
            ],
            "type": "Point"
        }
    },
    {
        "type": "Feature",
        "properties": {
            "country": "US",
            "elevation": 880,
            "tz": "America/New_York",
            "name": "Lewis Landing Airport",
            "iata": "",
            "icao": "NK79",
            "city": "Slate Hill"
        },
        "geometry": {
            "coordinates": [
                -74.5324020386,
                41.4183998108
            ],
            "type": "Point"
        }
    },
    {
        "type": "Feature",
        "properties": {
            "country": "NP",
            "elevation": 9380,
            "tz": "Asia/Kathmandu",
            "name": "Lukla Airport",
            "iata": "LUA",
            "icao": "VNLK",
            "city": "Lukla"
        },
        "geometry": {
            "coordinates": [
                86.7296981812,
                27.6868991852
            ],
            "type": "Point"
        }
    },
    {
        "type": "Feature",
        "properties": {
            "country": "US",
            "elevation": 90,
            "tz": "America/Chicago",
            "name": "Norman & White Airport",
            "iata": "",
            "icao": "6TE1",
            "city": "Edinburg"
        },
        "geometry": {
            "coordinates": [
                -98.1524963379,
                26.3614997864
            ],
            "type": "Point"
        }
    },
    {
        "type": "Feature",
        "properties": {
            "country": "US",
            "elevation": 668,
            "tz": "America/Chicago",
            "name": "Cody Port RLA Restricted Landing Area",
            "iata": "",
            "icao": "7IL8",
            "city": "Harding"
        },
        "geometry": {
            "coordinates": [
                -88.837600708,
                41.518901825
            ],
            "type": "Point"
        }
    },
    {
        "type": "Feature",
        "properties": {
            "country": "US",
            "elevation": 900,
            "tz": "America/New_York",
            "name": "Westford Airstrip",
            "iata": "",
            "icao": "CT74",
            "city": "Ashford/Westford"
        },
        "geometry": {
            "coordinates": [
                -72.1815032959,
                41.9506988525
            ],
            "type": "Point"
        }
    },
    {
        "type": "Feature",
        "properties": {
            "country": "CA",
            "elevation": 728,
            "tz": "America/Winnipeg",
            "name": "Poplar River Airport",
            "iata": "ZNG",
            "icao": "CZNG",
            "city": "Poplar River"
        },
        "geometry": {
            "coordinates": [
                -97.2667007446,
                53
            ],
            "type": "Point"
        }
    },
    {
        "type": "Feature",
        "properties": {
            "country": "US",
            "elevation": 33,
            "tz": "America/Yakutat",
            "name": "Yakutat Airport",
            "iata": "YAK",
            "icao": "PAYA",
            "city": "Yakutat"
        },
        "geometry": {
            "coordinates": [
                -139.660003662,
                59.5032997131
            ],
            "type": "Point"
        }
    },
    {
        "type": "Feature",
        "properties": {
            "country": "US",
            "elevation": 675,
            "tz": "America/Chicago",
            "name": "Sand Ridge Airpark Inc Airport",
            "iata": "",
            "icao": "OK94",
            "city": "Collinsville"
        },
        "geometry": {
            "coordinates": [
                -95.8032989502,
                36.354801178
            ],
            "type": "Point"
        }
    },
    {
        "type": "Feature",
        "properties": {
            "country": "BR",
            "elevation": 1646,
            "tz": "America/Recife",
            "name": "Presidente Joao Suassuna Airport",
            "iata": "CPV",
            "icao": "SBKG",
            "city": "Campina Grande"
        },
        "geometry": {
            "coordinates": [
                -35.8964004517,
                -7.2699198723
            ],
            "type": "Point"
        }
    },
    {
        "type": "Feature",
        "properties": {
            "country": "IN",
            "elevation": 1122,
            "tz": "Asia/Kolkata",
            "name": "Muirpur Airport",
            "iata": "",
            "icao": "VA1D",
            "city": ""
        },
        "geometry": {
            "coordinates": [
                83.0406036377,
                24.1252002716
            ],
            "type": "Point"
        }
    },
    {
        "type": "Feature",
        "properties": {
            "country": "US",
            "elevation": 6980,
            "tz": "America/Denver",
            "name": "Pinyon Airport",
            "iata": "",
            "icao": "CO43",
            "city": "Glade Park"
        },
        "geometry": {
            "coordinates": [
                -108.7099990845,
                39.0027999878
            ],
            "type": "Point"
        }
    },
    {
        "type": "Feature",
        "properties": {
            "country": "CL",
            "elevation": 557,
            "tz": "America/Santiago",
            "name": "Peumo Airport",
            "iata": "",
            "icao": "SCPW",
            "city": "Peumo"
        },
        "geometry": {
            "coordinates": [
                -71.1688919067,
                -34.4088897705
            ],
            "type": "Point"
        }
    },
    {
        "type": "Feature",
        "properties": {
            "country": "MG",
            "elevation": 9,
            "tz": "Indian/Antananarivo",
            "name": "Mananara Nord Airport",
            "iata": "WMR",
            "icao": "FMNC",
            "city": "Mananara Nord"
        },
        "geometry": {
            "coordinates": [
                49.7737998962,
                -16.1639003754
            ],
            "type": "Point"
        }
    },
    {
        "type": "Feature",
        "properties": {
            "country": "CG",
            "elevation": 427,
            "tz": "Africa/Brazzaville",
            "name": "Kibangou Airport",
            "iata": "",
            "icao": "FCPG",
            "city": "Kibangou"
        },
        "geometry": {
            "coordinates": [
                12.3000001907,
                -3.4830000401
            ],
            "type": "Point"
        }
    },
    {
        "type": "Feature",
        "properties": {
            "country": "CN",
            "elevation": 0,
            "tz": "Asia/Chongqing",
            "name": "Yulin Airport",
            "iata": "UYN",
            "icao": "ZLYL",
            "city": "Yulin"
        },
        "geometry": {
            "coordinates": [
                109.7310028076,
                38.2691993713
            ],
            "type": "Point"
        }
    },
    {
        "type": "Feature",
        "properties": {
            "country": "BR",
            "elevation": 751,
            "tz": "America/Santarem",
            "name": "Ourilandia do Norte Airport",
            "iata": "",
            "icao": "SDOW",
            "city": "Ourilandia Do Norte"
        },
        "geometry": {
            "coordinates": [
                -51.0499000549,
                -6.7631001472
            ],
            "type": "Point"
        }
    },
    {
        "type": "Feature",
        "properties": {
            "country": "LA",
            "elevation": 1380,
            "tz": "Asia/Vientiane",
            "name": "Ban Huoeisay Airport",
            "iata": "OUI",
            "icao": "VLHS",
            "city": ""
        },
        "geometry": {
            "coordinates": [
                100.43699646,
                20.2572994232
            ],
            "type": "Point"
        }
    },
    {
        "type": "Feature",
        "properties": {
            "country": "CA",
            "elevation": 2820,
            "tz": "America/Edmonton",
            "name": "Invermere Airport",
            "iata": "",
            "icao": "CAA8",
            "city": "Invermere"
        },
        "geometry": {
            "coordinates": [
                -116,
                50.5167007446
            ],
            "type": "Point"
        }
    },
    {
        "type": "Feature",
        "properties": {
            "country": "BR",
            "elevation": 1371,
            "tz": "America/Recife",
            "name": "Destilaria Sao Luiz Airport",
            "iata": "",
            "icao": "SJZC",
            "city": "Maraial"
        },
        "geometry": {
            "coordinates": [
                -35.7849998474,
                -8.7788887024
            ],
            "type": "Point"
        }
    },
    {
        "type": "Feature",
        "properties": {
            "country": "US",
            "elevation": 1425,
            "tz": "America/Chicago",
            "name": "Corinth Airport",
            "iata": "",
            "icao": "WI54",
            "city": "Athens"
        },
        "geometry": {
            "coordinates": [
                -90.149597168,
                44.9994010925
            ],
            "type": "Point"
        }
    },
    {
        "type": "Feature",
        "properties": {
            "country": "BF",
            "elevation": 1063,
            "tz": "Africa/Ouagadougou",
            "name": "Hounde Airport",
            "iata": "",
            "icao": "DFOH",
            "city": "Hounde"
        },
        "geometry": {
            "coordinates": [
                -3.5169999599,
                11.4829998016
            ],
            "type": "Point"
        }
    },
    {
        "type": "Feature",
        "properties": {
            "country": "US",
            "elevation": 149,
            "tz": "America/New_York",
            "name": "Kingston-Ulster Airport",
            "iata": "",
            "icao": "K20N",
            "city": "Kingston"
        },
        "geometry": {
            "coordinates": [
                -73.9641036987,
                41.9852981567
            ],
            "type": "Point"
        }
    },
    {
        "type": "Feature",
        "properties": {
            "country": "US",
            "elevation": 1019,
            "tz": "America/New_York",
            "name": "Mount Sterling Montgomery County Airport",
            "iata": "",
            "icao": "KIOB",
            "city": "Mount Sterling"
        },
        "geometry": {
            "coordinates": [
                -83.979599,
                38.05810165
            ],
            "type": "Point"
        }
    },
    {
        "type": "Feature",
        "properties": {
            "country": "AT",
            "elevation": 886,
            "tz": "Europe/Vienna",
            "name": "Eferding Airport",
            "iata": "",
            "icao": "LOLE",
            "city": "Eferding"
        },
        "geometry": {
            "coordinates": [
                13.9849996567,
                48.3382987976
            ],
            "type": "Point"
        }
    },
    {
        "type": "Feature",
        "properties": {
            "country": "JP",
            "elevation": 7,
            "tz": "Asia/Tokyo",
            "name": "Hofu Airport",
            "iata": "",
            "icao": "RJOF",
            "city": ""
        },
        "geometry": {
            "coordinates": [
                131.5489959717,
                34.0346984863
            ],
            "type": "Point"
        }
    },
    {
        "type": "Feature",
        "properties": {
            "country": "AU",
            "elevation": 0,
            "tz": "Australia/Perth",
            "name": "Depot Springs Airport",
            "iata": "",
            "icao": "YDPS",
            "city": ""
        },
        "geometry": {
            "coordinates": [
                120.0830001831,
                -27.8833007813
            ],
            "type": "Point"
        }
    },
    {
        "type": "Feature",
        "properties": {
            "country": "PH",
            "elevation": 7,
            "tz": "Asia/Manila",
            "name": "Borongan Airport",
            "iata": "BPR",
            "icao": "RPVW",
            "city": "Borongan City"
        },
        "geometry": {
            "coordinates": [
                125.478996277,
                11.6743001938
            ],
            "type": "Point"
        }
    },
    {
        "type": "Feature",
        "properties": {
            "country": "US",
            "elevation": 820,
            "tz": "America/Anchorage",
            "name": "Martin Airport",
            "iata": "",
            "icao": "AK92",
            "city": "Palmer"
        },
        "geometry": {
            "coordinates": [
                -149.029007,
                61.63800049
            ],
            "type": "Point"
        }
    },
    {
        "type": "Feature",
        "properties": {
            "country": "FI",
            "elevation": 738,
            "tz": "Europe/Helsinki",
            "name": "Aavahelukka Airport",
            "iata": "",
            "icao": "EFAA",
            "city": ""
        },
        "geometry": {
            "coordinates": [
                23.9717006683,
                67.6035995483
            ],
            "type": "Point"
        }
    },
    {
        "type": "Feature",
        "properties": {
            "country": "TD",
            "elevation": 1532,
            "tz": "Africa/Ndjamena",
            "name": "Pala Airport",
            "iata": "PLF",
            "icao": "FTTP",
            "city": "Pala"
        },
        "geometry": {
            "coordinates": [
                14.9250001907,
                9.3780603409
            ],
            "type": "Point"
        }
    },
    {
        "type": "Feature",
        "properties": {
            "country": "TN",
            "elevation": 26,
            "tz": "Africa/Tunis",
            "name": "Gabes Matmata International Airport",
            "iata": "GAE",
            "icao": "DTTG",
            "city": "Gabes"
        },
        "geometry": {
            "coordinates": [
                10.1033000946,
                33.8768997192
            ],
            "type": "Point"
        }
    },
    {
        "type": "Feature",
        "properties": {
            "country": "US",
            "elevation": 755,
            "tz": "America/Detroit",
            "name": "Mount Pleasant Municipal Airport",
            "iata": "",
            "icao": "KMOP",
            "city": "Mount Pleasant"
        },
        "geometry": {
            "coordinates": [
                -84.7375030518,
                43.6217002869
            ],
            "type": "Point"
        }
    },
    {
        "type": "Feature",
        "properties": {
            "country": "PE",
            "elevation": 9097,
            "tz": "America/Lima",
            "name": "Comandante FAP German Arias Graziani Airport",
            "iata": "ATA",
            "icao": "SPHZ",
            "city": "Anta"
        },
        "geometry": {
            "coordinates": [
                -77.5983963013,
                -9.3474397659
            ],
            "type": "Point"
        }
    },
    {
        "type": "Feature",
        "properties": {
            "country": "GB",
            "elevation": 250,
            "tz": "Europe/London",
            "name": "Oaksey Park Airport",
            "iata": "",
            "icao": "EGTW",
            "city": "Malmesbury"
        },
        "geometry": {
            "coordinates": [
                -2.0147199631,
                51.6321983337
            ],
            "type": "Point"
        }
    },
    {
        "type": "Feature",
        "properties": {
            "country": "US",
            "elevation": 2860,
            "tz": "America/Los_Angeles",
            "name": "Friendly Persuasion Farm Airport",
            "iata": "",
            "icao": "ID94",
            "city": "Troy"
        },
        "geometry": {
            "coordinates": [
                -116.6910018921,
                46.7766990662
            ],
            "type": "Point"
        }
    },
    {
        "type": "Feature",
        "properties": {
            "country": "US",
            "elevation": 542,
            "tz": "America/Chicago",
            "name": "Austin Bergstrom International Airport",
            "iata": "AUS",
            "icao": "KAUS",
            "city": "Austin"
        },
        "geometry": {
            "coordinates": [
                -97.6698989868,
                30.1944999695
            ],
            "type": "Point"
        }
    },
    {
        "type": "Feature",
        "properties": {
            "country": "CL",
            "elevation": 120,
            "tz": "America/Santiago",
            "name": "La Junta Airport",
            "iata": "",
            "icao": "SCLJ",
            "city": "La Junta"
        },
        "geometry": {
            "coordinates": [
                -72.4130554199,
                -43.975276947
            ],
            "type": "Point"
        }
    },
    {
        "type": "Feature",
        "properties": {
            "country": "IN",
            "elevation": 1100,
            "tz": "Asia/Kolkata",
            "name": "Pilani New Airport",
            "iata": "",
            "icao": "VI70",
            "city": ""
        },
        "geometry": {
            "coordinates": [
                75.5936965942,
                28.3488006592
            ],
            "type": "Point"
        }
    },
    {
        "type": "Feature",
        "properties": {
            "country": "US",
            "elevation": 870,
            "tz": "America/New_York",
            "name": "Flying N Estates Airport",
            "iata": "",
            "icao": "1GA2",
            "city": "Luthersville"
        },
        "geometry": {
            "coordinates": [
                -84.7484970093,
                33.1772994995
            ],
            "type": "Point"
        }
    },
    {
        "type": "Feature",
        "properties": {
            "country": "US",
            "elevation": 3750,
            "tz": "America/Denver",
            "name": "Fox Field",
            "iata": "",
            "icao": "99MT",
            "city": "Hamilton"
        },
        "geometry": {
            "coordinates": [
                -114.1780014038,
                46.0974998474
            ],
            "type": "Point"
        }
    },
    {
        "type": "Feature",
        "properties": {
            "country": "CA",
            "elevation": 141,
            "tz": "America/Halifax",
            "name": "Yarmouth Airport",
            "iata": "YQI",
            "icao": "CYQI",
            "city": "Yarmouth"
        },
        "geometry": {
            "coordinates": [
                -66.0880966187,
                43.8269004822
            ],
            "type": "Point"
        }
    },
    {
        "type": "Feature",
        "properties": {
            "country": "BO",
            "elevation": 12500,
            "tz": "America/La_Paz",
            "name": "Turco Airport",
            "iata": "",
            "icao": "SLTU",
            "city": "Sajama"
        },
        "geometry": {
            "coordinates": [
                -68.141998291,
                -18.1958332062
            ],
            "type": "Point"
        }
    },
    {
        "type": "Feature",
        "properties": {
            "country": "NO",
            "elevation": 160,
            "tz": "Europe/Oslo",
            "name": "Stord Airport",
            "iata": "SRP",
            "icao": "ENSO",
            "city": "Leirvik"
        },
        "geometry": {
            "coordinates": [
                5.3408498764,
                59.7919006348
            ],
            "type": "Point"
        }
    },
    {
        "type": "Feature",
        "properties": {
            "country": "US",
            "elevation": 1460,
            "tz": "America/Chicago",
            "name": "Johnson Airport",
            "iata": "",
            "icao": "2ND7",
            "city": "Newburg"
        },
        "geometry": {
            "coordinates": [
                -100.8140029907,
                48.751701355
            ],
            "type": "Point"
        }
    },
    {
        "type": "Feature",
        "properties": {
            "country": "BR",
            "elevation": 1687,
            "tz": "America/Cuiaba",
            "name": "Fazenda Sol Aberto Airport",
            "iata": "",
            "icao": "SIQV",
            "city": "Sapezal"
        },
        "geometry": {
            "coordinates": [
                -58.5800018311,
                -12.8950004578
            ],
            "type": "Point"
        }
    },
    {
        "type": "Feature",
        "properties": {
            "country": "CL",
            "elevation": 590,
            "tz": "America/Santiago",
            "name": "Arquilhue Airport",
            "iata": "",
            "icao": "SCAQ",
            "city": "Lago Ranco"
        },
        "geometry": {
            "coordinates": [
                -72.0291976929,
                -40.198299408
            ],
            "type": "Point"
        }
    },
    {
        "type": "Feature",
        "properties": {
            "country": "US",
            "elevation": 6814,
            "tz": "America/Denver",
            "name": "Sierra Blanca Regional Airport",
            "iata": "",
            "icao": "KSRR",
            "city": "Ruidoso"
        },
        "geometry": {
            "coordinates": [
                -105.5350036621,
                33.4627990723
            ],
            "type": "Point"
        }
    },
    {
        "type": "Feature",
        "properties": {
            "country": "AU",
            "elevation": 0,
            "tz": "Australia/Brisbane",
            "name": "Spring Creek Airport",
            "iata": "SCG",
            "icao": "YSPK",
            "city": ""
        },
        "geometry": {
            "coordinates": [
                144.5670013428,
                -18.6333007813
            ],
            "type": "Point"
        }
    },
    {
        "type": "Feature",
        "properties": {
            "country": "BR",
            "elevation": 2165,
            "tz": "America/Cuiaba",
            "name": "Fazenda Lagoa Funda Airport",
            "iata": "",
            "icao": "SWZO",
            "city": "Campo Verde"
        },
        "geometry": {
            "coordinates": [
                -55.136390686,
                -15.3427782059
            ],
            "type": "Point"
        }
    },
    {
        "type": "Feature",
        "properties": {
            "country": "KI",
            "elevation": 7,
            "tz": "Pacific/Tarawa",
            "name": "Onotoa Airport",
            "iata": "OOT",
            "icao": "NGON",
            "city": "Onotoa"
        },
        "geometry": {
            "coordinates": [
                175.5260009766,
                -1.796110034
            ],
            "type": "Point"
        }
    },
    {
        "type": "Feature",
        "properties": {
            "country": "US",
            "elevation": 680,
            "tz": "America/Detroit",
            "name": "Bakers Field",
            "iata": "",
            "icao": "MI88",
            "city": "Burnips"
        },
        "geometry": {
            "coordinates": [
                -85.9052963257,
                42.7322998047
            ],
            "type": "Point"
        }
    },
    {
        "type": "Feature",
        "properties": {
            "country": "US",
            "elevation": 714,
            "tz": "America/Indiana/Knox",
            "name": "Wilson Airport",
            "iata": "",
            "icao": "IN86",
            "city": "Knox"
        },
        "geometry": {
            "coordinates": [
                -86.6320037842,
                41.2803001404
            ],
            "type": "Point"
        }
    },
    {
        "type": "Feature",
        "properties": {
            "country": "AU",
            "elevation": 0,
            "tz": "Australia/Perth",
            "name": "York Airport",
            "iata": "",
            "icao": "YYRK",
            "city": ""
        },
        "geometry": {
            "coordinates": [
                116.7990036011,
                -31.8551006317
            ],
            "type": "Point"
        }
    },
    {
        "type": "Feature",
        "properties": {
            "country": "US",
            "elevation": 690,
            "tz": "America/Chicago",
            "name": "Goodlett Field",
            "iata": "",
            "icao": "9TS6",
            "city": "Alvarado"
        },
        "geometry": {
            "coordinates": [
                -97.1782989502,
                32.3788986206
            ],
            "type": "Point"
        }
    },
    {
        "type": "Feature",
        "properties": {
            "country": "BR",
            "elevation": 1083,
            "tz": "America/Cuiaba",
            "name": "Fazenda Agroplan Airport",
            "iata": "",
            "icao": "SJXG",
            "city": "Sao Felix Do Araguaia"
        },
        "geometry": {
            "coordinates": [
                -52.8499984741,
                -11.6633329391
            ],
            "type": "Point"
        }
    },
    {
        "type": "Feature",
        "properties": {
            "country": "US",
            "elevation": 660,
            "tz": "America/New_York",
            "name": "Old Orchard Airpark",
            "iata": "",
            "icao": "2NK9",
            "city": "Modena"
        },
        "geometry": {
            "coordinates": [
                -74.0772018433,
                41.6571998596
            ],
            "type": "Point"
        }
    },
    {
        "type": "Feature",
        "properties": {
            "country": "US",
            "elevation": 18,
            "tz": "America/New_York",
            "name": "Graham Landing Strip - Moore Haven Airport",
            "iata": "",
            "icao": "FL40",
            "city": "Moore Haven"
        },
        "geometry": {
            "coordinates": [
                -81.1517028809,
                26.8409004211
            ],
            "type": "Point"
        }
    },
    {
        "type": "Feature",
        "properties": {
            "country": "BR",
            "elevation": 773,
            "tz": "America/Fortaleza",
            "name": "Grajau Airport",
            "iata": "0",
            "icao": "SNGJ",
            "city": "Grajau"
        },
        "geometry": {
            "coordinates": [
                -46.1338996887,
                -5.8002800941
            ],
            "type": "Point"
        }
    },
    {
        "type": "Feature",
        "properties": {
            "country": "BR",
            "elevation": 1231,
            "tz": "America/Campo_Grande",
            "name": "Fazenda Aracatuba Airport",
            "iata": "",
            "icao": "SJGZ",
            "city": "Anaurilandia"
        },
        "geometry": {
            "coordinates": [
                -52.6749992371,
                -22.0900001526
            ],
            "type": "Point"
        }
    },
    {
        "type": "Feature",
        "properties": {
            "country": "AU",
            "elevation": 701,
            "tz": "Australia/Sydney",
            "name": "Moree Airport",
            "iata": "MRZ",
            "icao": "YMOR",
            "city": "Moree"
        },
        "geometry": {
            "coordinates": [
                149.845001221,
                -29.4988994598
            ],
            "type": "Point"
        }
    },
    {
        "type": "Feature",
        "properties": {
            "country": "US",
            "elevation": 121,
            "tz": "America/New_York",
            "name": "Southern Oaks Airport",
            "iata": "",
            "icao": "GE35",
            "city": "Bostwick"
        },
        "geometry": {
            "coordinates": [
                -83.469722,
                33.731389
            ],
            "type": "Point"
        }
    },
    {
        "type": "Feature",
        "properties": {
            "country": "US",
            "elevation": 1350,
            "tz": "America/New_York",
            "name": "Flying K Airport",
            "iata": "",
            "icao": "6NK8",
            "city": "Oneida"
        },
        "geometry": {
            "coordinates": [
                -76.6405029297,
                43.0097999573
            ],
            "type": "Point"
        }
    },
    {
        "type": "Feature",
        "properties": {
            "country": "US",
            "elevation": 1205,
            "tz": "America/Chicago",
            "name": "Flying J Airport",
            "iata": "",
            "icao": "WS71",
            "city": "St Croix Falls"
        },
        "geometry": {
            "coordinates": [
                -92.6155014038,
                45.4305000305
            ],
            "type": "Point"
        }
    },
    {
        "type": "Feature",
        "properties": {
            "country": "CN",
            "elevation": 5696,
            "tz": "Asia/Chongqing",
            "name": "Guyuan Liupanshan Airport",
            "iata": "GYU",
            "icao": "ZLGY",
            "city": "Guyuan"
        },
        "geometry": {
            "coordinates": [
                106.216944444,
                36.0788888889
            ],
            "type": "Point"
        }
    },
    {
        "type": "Feature",
        "properties": {
            "country": "US",
            "elevation": 360,
            "tz": "America/Los_Angeles",
            "name": "The Sea Ranch Airport",
            "iata": "",
            "icao": "CA51",
            "city": "The Sea Ranch"
        },
        "geometry": {
            "coordinates": [
                -123.4329986572,
                38.7046012878
            ],
            "type": "Point"
        }
    },
    {
        "type": "Feature",
        "properties": {
            "country": "US",
            "elevation": 1025,
            "tz": "America/Chicago",
            "name": "Wheaton Municipal Airport",
            "iata": "",
            "icao": "KETH",
            "city": "Wheaton"
        },
        "geometry": {
            "coordinates": [
                -96.5435028076,
                45.7804985046
            ],
            "type": "Point"
        }
    },
    {
        "type": "Feature",
        "properties": {
            "country": "DZ",
            "elevation": 295,
            "tz": "Africa/Algiers",
            "name": "Es Senia Airport",
            "iata": "ORN",
            "icao": "DAOO",
            "city": "Oran"
        },
        "geometry": {
            "coordinates": [
                -0.6211829782,
                35.6239013672
            ],
            "type": "Point"
        }
    },
    {
        "type": "Feature",
        "properties": {
            "country": "IS",
            "elevation": 60,
            "tz": "Atlantic/Reykjavik",
            "name": "Reykholar Airport",
            "iata": "RHA",
            "icao": "BIRE",
            "city": "Reykholar"
        },
        "geometry": {
            "coordinates": [
                -22.2061157227,
                65.4526290894
            ],
            "type": "Point"
        }
    },
    {
        "type": "Feature",
        "properties": {
            "country": "US",
            "elevation": 1500,
            "tz": "America/Chicago",
            "name": "Bagley Municipal Airport",
            "iata": "",
            "icao": "K7Y4",
            "city": "Bagley"
        },
        "geometry": {
            "coordinates": [
                -95.3608016968,
                47.5250015259
            ],
            "type": "Point"
        }
    },
    {
        "type": "Feature",
        "properties": {
            "country": "US",
            "elevation": 220,
            "tz": "America/Nome",
            "name": "Lost River 2 Airport",
            "iata": "",
            "icao": "AK45",
            "city": "Lost River"
        },
        "geometry": {
            "coordinates": [
                -167.1750030518,
                65.456199646
            ],
            "type": "Point"
        }
    },
    {
        "type": "Feature",
        "properties": {
            "country": "MX",
            "elevation": 901,
            "tz": "America/Monterrey",
            "name": "Piedras Negras International Airport",
            "iata": "PDS",
            "icao": "MMPG",
            "city": ""
        },
        "geometry": {
            "coordinates": [
                -100.5350036621,
                28.6273994446
            ],
            "type": "Point"
        }
    },
    {
        "type": "Feature",
        "properties": {
            "country": "US",
            "elevation": 587,
            "tz": "America/Los_Angeles",
            "name": "Flying H Ranch Airport",
            "iata": "",
            "icao": "WN42",
            "city": "Buckley"
        },
        "geometry": {
            "coordinates": [
                -122.1200027466,
                47.1837997437
            ],
            "type": "Point"
        }
    },
    {
        "type": "Feature",
        "properties": {
            "country": "US",
            "elevation": 245,
            "tz": "America/Chicago",
            "name": "Bully Henry Airport",
            "iata": "",
            "icao": "2AR0",
            "city": "Lonoke"
        },
        "geometry": {
            "coordinates": [
                -91.9742965698,
                34.8680992126
            ],
            "type": "Point"
        }
    },
    {
        "type": "Feature",
        "properties": {
            "country": "AU",
            "elevation": 37,
            "tz": "Australia/Sydney",
            "name": "Wentworth Airport",
            "iata": "",
            "icao": "YWTO",
            "city": ""
        },
        "geometry": {
            "coordinates": [
                141.891998291,
                -34.0882987976
            ],
            "type": "Point"
        }
    },
    {
        "type": "Feature",
        "properties": {
            "country": "US",
            "elevation": 4000,
            "tz": "America/Denver",
            "name": "Corr Airport",
            "iata": "",
            "icao": "25NE",
            "city": "Melbeta"
        },
        "geometry": {
            "coordinates": [
                -103.5110015869,
                41.7240982056
            ],
            "type": "Point"
        }
    },
    {
        "type": "Feature",
        "properties": {
            "country": "BR",
            "elevation": 810,
            "tz": "America/Cuiaba",
            "name": "Uniao do Vale Airport",
            "iata": "",
            "icao": "SWBG",
            "city": "Pontes E Lacerda"
        },
        "geometry": {
            "coordinates": [
                -59.38722229,
                -15.1999998093
            ],
            "type": "Point"
        }
    },
    {
        "type": "Feature",
        "properties": {
            "country": "IN",
            "elevation": 240,
            "tz": "Asia/Kolkata",
            "name": "Tezpur Airport",
            "iata": "TEZ",
            "icao": "VETZ",
            "city": ""
        },
        "geometry": {
            "coordinates": [
                92.7846984863,
                26.7091007233
            ],
            "type": "Point"
        }
    },
    {
        "type": "Feature",
        "properties": {
            "country": "PL",
            "elevation": 235,
            "tz": "Europe/Warsaw",
            "name": "Bydgoszcz Ignacy Jan Paderewski Airport",
            "iata": "BZG",
            "icao": "EPBY",
            "city": "Bydgoszcz"
        },
        "geometry": {
            "coordinates": [
                17.9776992798,
                53.0968017578
            ],
            "type": "Point"
        }
    },
    {
        "type": "Feature",
        "properties": {
            "country": "US",
            "elevation": 875,
            "tz": "America/Chicago",
            "name": "Aero Lake Estates Airport",
            "iata": "",
            "icao": "30IS",
            "city": "Genoa"
        },
        "geometry": {
            "coordinates": [
                -88.6250991821,
                42.0772018433
            ],
            "type": "Point"
        }
    },
    {
        "type": "Feature",
        "properties": {
            "country": "GB",
            "elevation": 811,
            "tz": "Europe/London",
            "name": "Compton Abbas Aerodrome",
            "iata": "",
            "icao": "EGHA",
            "city": "Shaftesbury"
        },
        "geometry": {
            "coordinates": [
                -2.1536099911,
                50.9672012329
            ],
            "type": "Point"
        }
    },
    {
        "type": "Feature",
        "properties": {
            "country": "US",
            "elevation": 820,
            "tz": "America/New_York",
            "name": "Perras Field",
            "iata": "",
            "icao": "VT44",
            "city": "Morrisville"
        },
        "geometry": {
            "coordinates": [
                -72.5814971924,
                44.5266990662
            ],
            "type": "Point"
        }
    },
    {
        "type": "Feature",
        "properties": {
            "country": "GB",
            "elevation": 16,
            "tz": "Europe/London",
            "name": "Thorne Airport",
            "iata": "",
            "icao": "EGCP",
            "city": "Thorne"
        },
        "geometry": {
            "coordinates": [
                -0.9280560017,
                53.6222000122
            ],
            "type": "Point"
        }
    },
    {
        "type": "Feature",
        "properties": {
            "country": "SY",
            "elevation": 700,
            "tz": "Asia/Damascus",
            "name": "Deir ez-Zor Airport",
            "iata": "DEZ",
            "icao": "OSDZ",
            "city": "Deir ez-Zor"
        },
        "geometry": {
            "coordinates": [
                40.1759986877,
                35.2854003906
            ],
            "type": "Point"
        }
    },
    {
        "type": "Feature",
        "properties": {
            "country": "US",
            "elevation": 1286,
            "tz": "America/Chicago",
            "name": "Owen-Withee Airport",
            "iata": "",
            "icao": "WS42",
            "city": "Withee"
        },
        "geometry": {
            "coordinates": [
                -90.6000976563,
                44.9500007629
            ],
            "type": "Point"
        }
    },
    {
        "type": "Feature",
        "properties": {
            "country": "US",
            "elevation": 1248,
            "tz": "America/New_York",
            "name": "K & D Airways Airport",
            "iata": "",
            "icao": "2OI8",
            "city": "Mansfield"
        },
        "geometry": {
            "coordinates": [
                -82.4206008911,
                40.863899231
            ],
            "type": "Point"
        }
    },
    {
        "type": "Feature",
        "properties": {
            "country": "US",
            "elevation": 486,
            "tz": "America/New_York",
            "name": "Lancaster County-Mc Whirter Field",
            "iata": "",
            "icao": "KLKR",
            "city": "Lancaster"
        },
        "geometry": {
            "coordinates": [
                -80.854599,
                34.72290039
            ],
            "type": "Point"
        }
    },
    {
        "type": "Feature",
        "properties": {
            "country": "CA",
            "elevation": 150,
            "tz": "America/St_Johns",
            "name": "Bell Island Airport",
            "iata": "",
            "icao": "CCV4",
            "city": "Bell Island"
        },
        "geometry": {
            "coordinates": [
                -52.9832992554,
                47.6333007813
            ],
            "type": "Point"
        }
    },
    {
        "type": "Feature",
        "properties": {
            "country": "US",
            "elevation": 780,
            "tz": "America/Indiana/Indianapolis",
            "name": "Bronson Airport",
            "iata": "",
            "icao": "II93",
            "city": "Bargersville"
        },
        "geometry": {
            "coordinates": [
                -86.2268981934,
                39.4838981628
            ],
            "type": "Point"
        }
    },
    {
        "type": "Feature",
        "properties": {
            "country": "TZ",
            "elevation": 5080,
            "tz": "Africa/Dar_es_Salaam",
            "name": "Seronera Airport",
            "iata": "SEU",
            "icao": "HTSN",
            "city": "Seronera"
        },
        "geometry": {
            "coordinates": [
                34.8224983215,
                -2.4580600262
            ],
            "type": "Point"
        }
    },
    {
        "type": "Feature",
        "properties": {
            "country": "ID",
            "elevation": 124,
            "tz": "Asia/Makassar",
            "name": "Malimpung Airport",
            "iata": "",
            "icao": "WAAG",
            "city": "Malimpung-Celebes Island"
        },
        "geometry": {
            "coordinates": [
                119.7363891602,
                -3.7269439697
            ],
            "type": "Point"
        }
    },
    {
        "type": "Feature",
        "properties": {
            "country": "RU",
            "elevation": 348,
            "tz": "Europe/Moscow",
            "name": "Yoshkar-Ola Airport",
            "iata": "JOK",
            "icao": "UWKJ",
            "city": "Yoshkar-Ola"
        },
        "geometry": {
            "coordinates": [
                47.9047012329,
                56.7005996704
            ],
            "type": "Point"
        }
    },
    {
        "type": "Feature",
        "properties": {
            "country": "US",
            "elevation": 800,
            "tz": "America/Chicago",
            "name": "Cummings Field",
            "iata": "",
            "icao": "45II",
            "city": "Rolling Prairie"
        },
        "geometry": {
            "coordinates": [
                -86.585899353,
                41.6337013245
            ],
            "type": "Point"
        }
    },
    {
        "type": "Feature",
        "properties": {
            "country": "US",
            "elevation": 194,
            "tz": "America/Los_Angeles",
            "name": "Quillayute Airport",
            "iata": "",
            "icao": "KUIL",
            "city": "Quillayute"
        },
        "geometry": {
            "coordinates": [
                -124.56300354,
                47.9365997314
            ],
            "type": "Point"
        }
    },
    {
        "type": "Feature",
        "properties": {
            "country": "NO",
            "elevation": 44,
            "tz": "Europe/Oslo",
            "name": "Valan Airport",
            "iata": "HVG",
            "icao": "ENHV",
            "city": "Honningsvag"
        },
        "geometry": {
            "coordinates": [
                25.9836006165,
                71.0096969604
            ],
            "type": "Point"
        }
    },
    {
        "type": "Feature",
        "properties": {
            "country": "HN",
            "elevation": 1990,
            "tz": "America/Tegucigalpa",
            "name": "Copan Ruinas Airport",
            "iata": "RUY",
            "icao": "MHRU",
            "city": "Ruinas de Copan"
        },
        "geometry": {
            "coordinates": [
                -89.1439971924,
                14.8402996063
            ],
            "type": "Point"
        }
    },
    {
        "type": "Feature",
        "properties": {
            "country": "BY",
            "elevation": 0,
            "tz": "Europe/Minsk",
            "name": "Baranavichi Air Base",
            "iata": "",
            "icao": "UMMA",
            "city": "Baranavichi"
        },
        "geometry": {
            "coordinates": [
                26.0499992371,
                53.0999984741
            ],
            "type": "Point"
        }
    },
    {
        "type": "Feature",
        "properties": {
            "country": "US",
            "elevation": 1058,
            "tz": "America/Chicago",
            "name": "Fox Fire Airport",
            "iata": "",
            "icao": "SN85",
            "city": "Wellsville"
        },
        "geometry": {
            "coordinates": [
                -95.1022033691,
                38.7336006165
            ],
            "type": "Point"
        }
    },
    {
        "type": "Feature",
        "properties": {
            "country": "US",
            "elevation": 4000,
            "tz": "America/Denver",
            "name": "Silkman Farms Inc. Airport",
            "iata": "",
            "icao": "10CO",
            "city": "Burlington"
        },
        "geometry": {
            "coordinates": [
                -102.212997437,
                39.45470047
            ],
            "type": "Point"
        }
    },
    {
        "type": "Feature",
        "properties": {
            "country": "AQ",
            "elevation": 0,
            "tz": "Antarctica/Rothera",
            "name": "Rothera Point Airport",
            "iata": "",
            "icao": "AAXX",
            "city": "Rothera Point"
        },
        "geometry": {
            "coordinates": [
                -68.1269931793,
                -67.5669411575
            ],
            "type": "Point"
        }
    },
    {
        "type": "Feature",
        "properties": {
            "country": "US",
            "elevation": 490,
            "tz": "America/Chicago",
            "name": "Temple Ranch Airport",
            "iata": "",
            "icao": "42XS",
            "city": "Freer"
        },
        "geometry": {
            "coordinates": [
                -98.403889,
                27.957444
            ],
            "type": "Point"
        }
    },
    {
        "type": "Feature",
        "properties": {
            "country": "US",
            "elevation": 980,
            "tz": "America/New_York",
            "name": "Fighter Field Airport",
            "iata": "",
            "icao": "OA51",
            "city": "Watkins"
        },
        "geometry": {
            "coordinates": [
                -83.228611,
                40.206111
            ],
            "type": "Point"
        }
    },
    {
        "type": "Feature",
        "properties": {
            "country": "FR",
            "elevation": 43,
            "tz": "Europe/Paris",
            "name": "La Reole Floudes Airport",
            "iata": "",
            "icao": "LFDR",
            "city": "Rochefort"
        },
        "geometry": {
            "coordinates": [
                -0.0561110005,
                44.5680999756
            ],
            "type": "Point"
        }
    },
    {
        "type": "Feature",
        "properties": {
            "country": "BR",
            "elevation": 2500,
            "tz": "America/Bahia",
            "name": "Fazenda Rio Brilhante Airport",
            "iata": "",
            "icao": "SJGD",
            "city": "Sao Desiderio"
        },